time,.header.seq,.header.stamp.secs,.header.stamp.nsecs,.header.frame_id,.pose.position.x,.pose.position.y,.pose.position.z,.pose.orientation.x,.pose.orientation.y,.pose.orientation.z,.pose.orientation.w
2022/03/25/14:16:24.923781,20,1648185384,923033925,map,719.911269872,109.211986256,0.0,0.0,-0.0,-0.999315977568,-0.0369807649712
2022/03/25/14:16:25.023557,21,1648185385,23025400,map,719.911269872,109.211986256,0.0,0.0,-0.0,-0.999315977568,-0.0369807649712
2022/03/25/14:16:25.123617,22,1648185385,123000507,map,719.911269872,109.211986256,0.0,0.0,-0.0,-0.999315977568,-0.0369807649712
2022/03/25/14:16:25.223857,23,1648185385,223233963,map,719.911269872,109.211986256,0.0,0.0,-0.0,-0.999315977568,-0.0369807649712
2022/03/25/14:16:25.323875,24,1648185385,323257826,map,719.911269872,109.211986256,0.0,0.0,-0.0,-0.999315977568,-0.0369807649712
2022/03/25/14:16:25.423546,25,1648185385,422990976,map,719.911269872,109.211986256,0.0,0.0,-0.0,-0.999315977568,-0.0369807649712
2022/03/25/14:16:25.523880,26,1648185385,523263261,map,719.911269872,109.211986256,0.0,0.0,-0.0,-0.999315977568,-0.0369807649712
2022/03/25/14:16:25.623959,27,1648185385,623277285,map,719.911269872,109.211986256,0.0,0.0,-0.0,-0.999315977568,-0.0369807649712
2022/03/25/14:16:25.724012,28,1648185385,723286717,map,719.911269872,109.211986256,0.0,0.0,-0.0,-0.999315977568,-0.0369807649712
2022/03/25/14:16:25.824024,29,1648185385,823260471,map,719.911269872,109.211986256,0.0,0.0,-0.0,-0.999315977568,-0.0369807649712
2022/03/25/14:16:25.923255,30,1648185385,922926258,map,719.911269872,109.211986256,0.0,0.0,-0.0,-0.999315977568,-0.0369807649712
2022/03/25/14:16:26.023216,31,1648185386,22951482,map,719.920107693,109.211986256,0.0,0.0,-0.0,-0.999315977568,-0.0369807649712
2022/03/25/14:16:26.123182,32,1648185386,122926142,map,719.920107693,109.211986256,0.0,0.0,-0.0,-0.999315977568,-0.0369807649712
2022/03/25/14:16:26.223550,33,1648185386,223189487,map,719.920107693,109.211986256,0.0,0.0,-0.0,-0.999315977568,-0.0369807649712
2022/03/25/14:16:26.323807,34,1648185386,323211642,map,719.920107693,109.211986256,0.0,0.0,-0.0,-0.999315977568,-0.0369807649712
2022/03/25/14:16:26.423638,35,1648185386,422987696,map,719.920107693,109.211986256,0.0,0.0,-0.0,-0.999315977568,-0.0369807649712
2022/03/25/14:16:26.523859,36,1648185386,523218541,map,719.920107693,109.211986256,0.0,0.0,-0.0,-0.999315977568,-0.0369807649712
2022/03/25/14:16:26.623676,37,1648185386,623040107,map,719.920107693,109.211986256,0.0,0.0,-0.0,-0.999315977568,-0.0369807649712
2022/03/25/14:16:26.723954,38,1648185386,723218487,map,719.911269872,109.211986256,0.0,0.0,-0.0,-0.999315977568,-0.0369807649712
2022/03/25/14:16:26.823897,39,1648185386,823216755,map,719.911269872,109.211986256,0.0,0.0,-0.0,-0.999315977568,-0.0369807649712
2022/03/25/14:16:26.923911,40,1648185386,923218770,map,719.911269872,109.211986256,0.0,0.0,-0.0,-0.999315977568,-0.0369807649712
2022/03/25/14:16:27.023874,41,1648185387,23191885,map,719.911269872,109.200887477,0.0,0.0,-0.0,-0.999315977568,-0.0369807649712
2022/03/25/14:16:27.123939,42,1648185387,123192941,map,719.911269872,109.200887477,0.0,0.0,-0.0,-0.999315977568,-0.0369807649712
2022/03/25/14:16:27.223853,43,1648185387,223177284,map,719.911269872,109.200887477,0.0,0.0,-0.0,-0.999315977568,-0.0369807649712
2022/03/25/14:16:27.323894,44,1648185387,323211510,map,719.911269872,109.200887477,0.0,0.0,-0.0,-0.999315977568,-0.0369807649712
2022/03/25/14:16:27.424124,45,1648185387,423417422,map,719.911269872,109.200887477,0.0,0.0,-0.0,-0.999315977568,-0.0369807649712
2022/03/25/14:16:27.523957,46,1648185387,523221240,map,719.911269872,109.200887477,0.0,0.0,-0.0,-0.999315977568,-0.0369807649712
2022/03/25/14:16:27.623896,47,1648185387,623204785,map,719.911269872,109.200887477,0.0,0.0,-0.0,-0.999315977568,-0.0369807649712
2022/03/25/14:16:27.723912,48,1648185387,723234768,map,719.911269872,109.200887477,0.0,0.0,-0.0,-0.999315977568,-0.0369807649712
2022/03/25/14:16:27.823922,49,1648185387,823243220,map,719.911269872,109.200887477,0.0,0.0,-0.0,-0.999315977568,-0.0369807649712
2022/03/25/14:16:27.923924,50,1648185387,923228711,map,719.911269872,109.200887477,0.0,0.0,-0.0,-0.999315977568,-0.0369807649712
2022/03/25/14:16:28.023945,51,1648185388,23258763,map,719.911269872,109.200887477,0.0,0.0,-0.0,-0.999315977568,-0.0369807649712
2022/03/25/14:16:28.123935,52,1648185388,123247765,map,719.911269872,109.200887477,0.0,0.0,-0.0,-0.999315977568,-0.0369807649712
2022/03/25/14:16:28.223892,53,1648185388,223215278,map,719.902432051,109.200887477,0.0,0.0,-0.0,-0.999315977568,-0.0369807649712
2022/03/25/14:16:28.323940,54,1648185388,323252631,map,719.902432051,109.200887477,0.0,0.0,-0.0,-0.999315977568,-0.0369807649712
2022/03/25/14:16:28.423960,55,1648185388,423268609,map,719.902432051,109.200887477,0.0,0.0,-0.0,-0.999315977568,-0.0369807649712
2022/03/25/14:16:28.523936,56,1648185388,523254109,map,719.858242943,109.223085036,0.0,0.0,-0.0,-0.996979732348,-0.0776621741111
2022/03/25/14:16:28.623938,57,1648185388,623244675,map,719.858242943,109.223085036,0.0,0.0,-0.0,-0.996979732348,-0.0776621741111
2022/03/25/14:16:28.723947,58,1648185388,723265851,map,719.769864726,109.234183815,0.0,0.0,0.0,-0.999998216721,0.00188853239453
2022/03/25/14:16:28.823674,59,1648185388,823006275,map,719.769864726,109.234183815,0.0,0.0,0.0,-0.999998216721,0.00188853239453
2022/03/25/14:16:28.923872,60,1648185388,923249680,map,719.769864726,109.234183815,0.0,0.0,0.0,-0.999998216721,0.00188853239453
2022/03/25/14:16:29.023970,61,1648185389,23259630,map,719.646135225,109.234183815,0.0,0.0,-0.0,-0.999730880768,-0.0231984059441
2022/03/25/14:16:29.123973,62,1648185389,123244387,map,719.646135225,109.234183815,0.0,0.0,-0.0,-0.999730880768,-0.0231984059441
2022/03/25/14:16:29.223976,63,1648185389,223257561,map,719.495892258,109.245282594,0.0,0.0,-0.0,-0.999993849643,-0.00350723194162
2022/03/25/14:16:29.323934,64,1648185389,323210635,map,719.495892258,109.245282594,0.0,0.0,-0.0,-0.999993849643,-0.00350723194162
2022/03/25/14:16:29.423944,65,1648185389,423214692,map,719.495892258,109.245282594,0.0,0.0,-0.0,-0.999993849643,-0.00350723194162
2022/03/25/14:16:29.523897,66,1648185389,523255539,map,719.310298005,109.267480152,0.0,0.0,-0.0,-0.996953631107,-0.0779965218611
2022/03/25/14:16:29.623695,67,1648185389,623005866,map,719.310298005,109.267480152,0.0,0.0,-0.0,-0.996953631107,-0.0779965218611
2022/03/25/14:16:29.724006,68,1648185389,723247044,map,719.107028109,109.256381372,0.0,0.0,-0.0,-0.99995033196,-0.00996662494912
2022/03/25/14:16:29.823953,69,1648185389,823231915,map,719.107028109,109.256381372,0.0,0.0,-0.0,-0.99995033196,-0.00996662494912
2022/03/25/14:16:29.923917,70,1648185389,923183121,map,719.107028109,109.256381372,0.0,0.0,-0.0,-0.99995033196,-0.00996662494912
2022/03/25/14:16:30.023943,71,1648185390,23209215,map,718.850731283,109.267480152,0.0,0.0,-0.0,-0.999815624996,-0.0192019794193
2022/03/25/14:16:30.123770,72,1648185390,123116049,map,718.850731283,109.267480152,0.0,0.0,-0.0,-0.999815624996,-0.0192019794193
2022/03/25/14:16:30.223662,73,1648185390,223017905,map,718.567920993,109.278578931,0.0,0.0,-0.0,-0.999925774242,-0.0121838420476
2022/03/25/14:16:30.323662,74,1648185390,323006788,map,718.567920993,109.278578931,0.0,0.0,-0.0,-0.999925774242,-0.0121838420476
2022/03/25/14:16:30.423902,75,1648185390,423205935,map,718.567920993,109.278578931,0.0,0.0,-0.0,-0.999925774242,-0.0121838420476
2022/03/25/14:16:30.523880,76,1648185390,523213891,map,718.267435059,109.300776489,0.0,0.0,-0.0,-0.99969942875,-0.0245163650641
2022/03/25/14:16:30.623900,77,1648185390,623249602,map,718.267435059,109.300776489,0.0,0.0,-0.0,-0.99969942875,-0.0245163650641
2022/03/25/14:16:30.723610,78,1648185390,722970253,map,717.940435661,109.300776489,0.0,0.0,0.0,-0.999999857571,0.000533721659921
2022/03/25/14:16:30.823863,79,1648185390,823252225,map,717.940435661,109.300776489,0.0,0.0,0.0,-0.999999857571,0.000533721659921
2022/03/25/14:16:30.923989,80,1648185390,923248892,map,717.940435661,109.300776489,0.0,0.0,0.0,-0.999999857571,0.000533721659921
2022/03/25/14:16:31.023970,81,1648185391,23259631,map,717.586922798,109.300776489,0.0,0.0,0.0,-0.999764112762,0.0217190891609
2022/03/25/14:16:31.123795,82,1648185391,123058771,map,717.586922798,109.300776489,0.0,0.0,0.0,-0.999764112762,0.0217190891609
2022/03/25/14:16:31.223996,83,1648185391,223258109,map,717.233409934,109.28967771,0.0,0.0,-0.0,-0.999850126758,-0.0173125394331
2022/03/25/14:16:31.323910,84,1648185391,323258909,map,717.233409934,109.28967771,0.0,0.0,-0.0,-0.999850126758,-0.0173125394331
2022/03/25/14:16:31.423848,85,1648185391,423200304,map,717.233409934,109.28967771,0.0,0.0,-0.0,-0.999850126758,-0.0173125394331
2022/03/25/14:16:31.523784,86,1648185391,523145874,map,716.879897072,109.300776489,0.0,0.0,-0.0,-0.999990938107,-0.00425719425201
2022/03/25/14:16:31.623502,87,1648185391,622963436,map,716.879897072,109.300776489,0.0,0.0,-0.0,-0.999990938107,-0.00425719425201
2022/03/25/14:16:31.723740,88,1648185391,723067864,map,716.499870744,109.311875268,0.0,0.0,-0.0,-0.999563363626,-0.0295479626376
2022/03/25/14:16:31.823750,89,1648185391,823036371,map,716.499870744,109.311875268,0.0,0.0,-0.0,-0.999563363626,-0.0295479626376
2022/03/25/14:16:31.923852,90,1648185391,923207742,map,716.499870744,109.311875268,0.0,0.0,-0.0,-0.999563363626,-0.0295479626376
2022/03/25/14:16:32.023897,91,1648185392,23238352,map,716.111006594,109.345171605,0.0,0.0,-0.0,-0.999755240249,-0.0221237337509
2022/03/25/14:16:32.123827,92,1648185392,123162331,map,716.111006594,109.345171605,0.0,0.0,-0.0,-0.999755240249,-0.0221237337509
2022/03/25/14:16:32.223679,93,1648185392,223048820,map,715.704466802,109.378467943,0.0,0.0,-0.0,-0.999751863543,-0.0222758017094
2022/03/25/14:16:32.323684,94,1648185392,323056806,map,715.704466802,109.378467943,0.0,0.0,-0.0,-0.999751863543,-0.0222758017094
2022/03/25/14:16:32.423696,95,1648185392,423049631,map,715.704466802,109.378467943,0.0,0.0,-0.0,-0.999751863543,-0.0222758017094
2022/03/25/14:16:32.523649,96,1648185392,523018689,map,715.315602653,109.389566722,0.0,0.0,-0.0,-0.999752339578,-0.0222544267262
2022/03/25/14:16:32.623608,97,1648185392,623034355,map,715.315602653,109.389566722,0.0,0.0,-0.0,-0.999752339578,-0.0222544267262
2022/03/25/14:16:32.723434,98,1648185392,722948214,map,714.917900682,109.41176428,0.0,0.0,-0.0,-0.999449298372,-0.0331828266355
2022/03/25/14:16:32.823827,99,1648185392,823163774,map,714.917900682,109.41176428,0.0,0.0,-0.0,-0.999449298372,-0.0331828266355
2022/03/25/14:16:32.923893,100,1648185392,923286832,map,714.917900682,109.41176428,0.0,0.0,-0.0,-0.999449298372,-0.0331828266355
2022/03/25/14:16:33.023831,101,1648185393,23284852,map,714.51136089,109.445060618,0.0,0.0,-0.0,-0.999583625033,-0.028854402899
2022/03/25/14:16:33.123678,102,1648185393,123071151,map,714.51136089,109.445060618,0.0,0.0,-0.0,-0.999583625033,-0.028854402899
2022/03/25/14:16:33.223544,103,1648185393,223018977,map,714.087145454,109.467258175,0.0,0.0,-0.0,-0.999797807126,-0.0201083282783
2022/03/25/14:16:33.323736,104,1648185393,323241819,map,714.087145454,109.467258175,0.0,0.0,-0.0,-0.999797807126,-0.0201083282783
2022/03/25/14:16:33.423790,105,1648185393,423235866,map,714.087145454,109.467258175,0.0,0.0,-0.0,-0.999797807126,-0.0201083282783
2022/03/25/14:16:33.523746,106,1648185393,523228758,map,713.654092196,109.500554513,0.0,0.0,-0.0,-0.999202572819,-0.0399276654852
2022/03/25/14:16:33.623732,107,1648185393,623214324,map,713.654092196,109.500554513,0.0,0.0,-0.0,-0.999202572819,-0.0399276654852
2022/03/25/14:16:33.723529,108,1648185393,723027487,map,713.229876761,109.522752071,0.0,0.0,-0.0,-0.999606353615,-0.0280559764266
2022/03/25/14:16:33.823778,109,1648185393,823264422,map,713.229876761,109.522752071,0.0,0.0,-0.0,-0.999606353615,-0.0280559764266
2022/03/25/14:16:33.923811,110,1648185393,923243310,map,713.229876761,109.522752071,0.0,0.0,-0.0,-0.999606353615,-0.0280559764266
2022/03/25/14:16:34.023859,111,1648185394,23329479,map,712.787985682,109.544949629,0.0,0.0,-0.0,-0.999624760318,-0.0273923083955
2022/03/25/14:16:34.123853,112,1648185394,123234070,map,712.787985682,109.544949629,0.0,0.0,-0.0,-0.999624760318,-0.0273923083955
2022/03/25/14:16:34.224069,113,1648185394,223481821,map,712.310743318,109.589344746,0.0,0.0,-0.0,-0.999255036444,-0.0385923845019
2022/03/25/14:16:34.323664,114,1648185394,323022265,map,712.310743318,109.589344746,0.0,0.0,-0.0,-0.999255036444,-0.0385923845019
2022/03/25/14:16:34.423959,115,1648185394,423335533,map,712.310743318,109.589344746,0.0,0.0,-0.0,-0.999255036444,-0.0385923845019
2022/03/25/14:16:34.523869,116,1648185394,523282383,map,711.833500952,109.633739862,0.0,0.0,-0.0,-0.999490787351,-0.0319087135606
2022/03/25/14:16:34.623481,117,1648185394,622977192,map,711.833500952,109.633739862,0.0,0.0,-0.0,-0.999490787351,-0.0319087135606
2022/03/25/14:16:34.723803,118,1648185394,723238641,map,711.329745122,109.65593742,0.0,0.0,-0.0,-0.999381809514,-0.0351567747848
2022/03/25/14:16:34.823867,119,1648185394,823256256,map,711.329745122,109.65593742,0.0,0.0,-0.0,-0.999381809514,-0.0351567747848
2022/03/25/14:16:34.923683,120,1648185394,923115791,map,711.329745122,109.65593742,0.0,0.0,-0.0,-0.999381809514,-0.0351567747848
2022/03/25/14:16:35.023823,121,1648185395,23219538,map,710.80831365,109.700332536,0.0,0.0,-0.0,-0.999315135014,-0.0370035259287
2022/03/25/14:16:35.123635,122,1648185395,123043867,map,710.80831365,109.700332536,0.0,0.0,-0.0,-0.999315135014,-0.0370035259287
2022/03/25/14:16:35.223948,123,1648185395,223461748,map,710.30455782,109.755826432,0.0,0.0,-0.0,-0.999454089061,-0.0330382181735
2022/03/25/14:16:35.323806,124,1648185395,323235031,map,710.30455782,109.755826432,0.0,0.0,-0.0,-0.999454089061,-0.0330382181735
2022/03/25/14:16:35.423813,125,1648185395,423256112,map,710.30455782,109.755826432,0.0,0.0,-0.0,-0.999454089061,-0.0330382181735
2022/03/25/14:16:35.523704,126,1648185395,523156625,map,709.791964169,109.800221548,0.0,0.0,-0.0,-0.998997273771,-0.0447710508971
2022/03/25/14:16:35.623799,127,1648185395,623261860,map,709.791964169,109.800221548,0.0,0.0,-0.0,-0.998997273771,-0.0447710508971
2022/03/25/14:16:35.723878,128,1648185395,723258763,map,709.261694874,109.833517886,0.0,0.0,-0.0,-0.999350858947,-0.0360258340971
2022/03/25/14:16:35.823893,129,1648185395,823272251,map,709.261694874,109.833517886,0.0,0.0,-0.0,-0.999350858947,-0.0360258340971
2022/03/25/14:16:35.923902,130,1648185395,923297758,map,709.261694874,109.833517886,0.0,0.0,-0.0,-0.999350858947,-0.0360258340971
2022/03/25/14:16:36.024123,131,1648185396,23477014,map,708.740263401,109.889011781,0.0,0.0,-0.0,-0.99817124,-0.0604497778007
2022/03/25/14:16:36.123469,132,1648185396,122954077,map,708.740263401,109.889011781,0.0,0.0,-0.0,-0.99817124,-0.0604497778007
2022/03/25/14:16:36.223549,133,1648185396,223012366,map,708.209994107,109.955604455,0.0,0.0,-0.0,-0.999595827299,-0.0284285428131
2022/03/25/14:16:36.323818,134,1648185396,323263678,map,708.209994107,109.955604455,0.0,0.0,-0.0,-0.999595827299,-0.0284285428131
2022/03/25/14:16:36.423773,135,1648185396,423241054,map,708.209994107,109.955604455,0.0,0.0,-0.0,-0.999595827299,-0.0284285428131
2022/03/25/14:16:36.523773,136,1648185396,523247772,map,707.706238277,109.988900793,0.0,0.0,-0.0,-0.999411438671,-0.0343041725449
2022/03/25/14:16:36.623606,137,1648185396,623054092,map,707.706238277,109.988900793,0.0,0.0,-0.0,-0.999411438671,-0.0343041725449
2022/03/25/14:16:36.723684,138,1648185396,723136663,map,707.211320269,110.044394688,0.0,0.0,-0.0,-0.997376222321,-0.0723924799189
2022/03/25/14:16:36.823865,139,1648185396,823254947,map,707.211320269,110.044394688,0.0,0.0,-0.0,-0.997376222321,-0.0723924799189
2022/03/25/14:16:36.923876,140,1648185396,923258904,map,707.211320269,110.044394688,0.0,0.0,-0.0,-0.997376222321,-0.0723924799189
2022/03/25/14:16:37.024095,141,1648185397,23473554,map,706.71640226,110.077691025,0.0,0.0,-0.0,-0.999393908262,-0.0348111494911
2022/03/25/14:16:37.123683,142,1648185397,123066325,map,706.71640226,110.077691025,0.0,0.0,-0.0,-0.999393908262,-0.0348111494911
2022/03/25/14:16:37.223543,143,1648185397,223027623,map,706.230322073,110.166481258,0.0,0.0,-0.0,-0.997259651377,-0.0739809957735
2022/03/25/14:16:37.323708,144,1648185397,323204304,map,706.230322073,110.166481258,0.0,0.0,-0.0,-0.997259651377,-0.0739809957735
2022/03/25/14:16:37.423742,145,1648185397,423197513,map,706.230322073,110.166481258,0.0,0.0,-0.0,-0.997259651377,-0.0739809957735
2022/03/25/14:16:37.523786,146,1648185397,523255272,map,705.708890601,110.221975154,0.0,0.0,-0.0,-0.999005111495,-0.0445958205033
2022/03/25/14:16:37.623928,147,1648185397,623377869,map,705.708890601,110.221975154,0.0,0.0,-0.0,-0.999005111495,-0.0445958205033
2022/03/25/14:16:37.723898,148,1648185397,723300206,map,705.160945663,110.299666607,0.0,0.0,-0.0,-0.999396111732,-0.0347478323686
2022/03/25/14:16:37.823830,149,1648185397,823235838,map,705.160945663,110.299666607,0.0,0.0,-0.0,-0.999396111732,-0.0347478323686
2022/03/25/14:16:37.923883,150,1648185397,923234779,map,705.160945663,110.299666607,0.0,0.0,-0.0,-0.999396111732,-0.0347478323686
2022/03/25/14:16:38.023798,151,1648185398,23220950,map,704.630676369,110.355160503,0.0,0.0,-0.0,-0.998563661698,-0.0535781068749
2022/03/25/14:16:38.123863,152,1648185398,123220158,map,704.630676369,110.355160503,0.0,0.0,-0.0,-0.998563661698,-0.0535781068749
2022/03/25/14:16:38.223867,153,1648185398,223249975,map,704.109244896,110.39955562,0.0,0.0,-0.0,-0.998878181972,-0.0473537493787
2022/03/25/14:16:38.323579,154,1648185398,323063823,map,704.109244896,110.39955562,0.0,0.0,-0.0,-0.998878181972,-0.0473537493787
2022/03/25/14:16:38.423877,155,1648185398,423204861,map,704.109244896,110.39955562,0.0,0.0,-0.0,-0.998878181972,-0.0473537493787
2022/03/25/14:16:38.523665,156,1648185398,523147707,map,703.57013778,110.455049515,0.0,0.0,0.0,-0.999877947593,0.0156233772763
2022/03/25/14:16:38.623625,157,1648185398,623008511,map,703.57013778,110.455049515,0.0,0.0,0.0,-0.999877947593,0.0156233772763
2022/03/25/14:16:38.723638,158,1648185398,723078102,map,703.031030663,110.532740969,0.0,0.0,-0.0,-0.996157346371,-0.0875816263336
2022/03/25/14:16:38.823856,159,1648185398,823203086,map,703.031030663,110.532740969,0.0,0.0,-0.0,-0.996157346371,-0.0875816263336
2022/03/25/14:16:38.923824,160,1648185398,923183021,map,703.031030663,110.532740969,0.0,0.0,-0.0,-0.996157346371,-0.0875816263336
2022/03/25/14:16:39.023857,161,1648185399,23230534,map,702.456572261,110.610432422,0.0,0.0,-0.0,-0.99737213335,-0.0724487930626
2022/03/25/14:16:39.123726,162,1648185399,123037286,map,702.456572261,110.610432422,0.0,0.0,-0.0,-0.99737213335,-0.0724487930626
2022/03/25/14:16:39.223686,163,1648185399,223065462,map,701.882113859,110.699222655,0.0,0.0,-0.0,-0.99783568816,-0.0657566683684
2022/03/25/14:16:39.323786,164,1648185399,323160646,map,701.882113859,110.699222655,0.0,0.0,-0.0,-0.99783568816,-0.0657566683684
2022/03/25/14:16:39.423722,165,1648185399,423109329,map,701.882113859,110.699222655,0.0,0.0,-0.0,-0.99783568816,-0.0657566683684
2022/03/25/14:16:39.523754,166,1648185399,523239396,map,701.334168921,110.743617771,0.0,0.0,-0.0,-0.995482195266,-0.0949484012941
2022/03/25/14:16:39.623607,167,1648185399,623020252,map,701.334168921,110.743617771,0.0,0.0,-0.0,-0.995482195266,-0.0949484012941
2022/03/25/14:16:39.723568,168,1648185399,723030936,map,700.680170124,110.75471655,0.0,0.0,-0.0,-0.998650993507,-0.0519248800492
2022/03/25/14:16:39.823863,169,1648185399,823225211,map,700.680170124,110.75471655,0.0,0.0,-0.0,-0.998650993507,-0.0519248800492
2022/03/25/14:16:39.923642,170,1648185399,923049839,map,700.680170124,110.75471655,0.0,0.0,-0.0,-0.998650993507,-0.0519248800492
2022/03/25/14:16:40.023871,171,1648185400,23275737,map,700.070360436,110.799111667,0.0,0.0,-0.0,-0.999344552873,-0.0362003403855
2022/03/25/14:16:40.123541,172,1648185400,122993094,map,700.070360436,110.799111667,0.0,0.0,-0.0,-0.999344552873,-0.0362003403855
2022/03/25/14:16:40.223624,173,1648185400,223052804,map,699.47822639,110.865704341,0.0,0.0,-0.0,-0.997559927349,-0.0698154091031
2022/03/25/14:16:40.323597,174,1648185400,323055776,map,699.47822639,110.865704341,0.0,0.0,-0.0,-0.997559927349,-0.0698154091031
2022/03/25/14:16:40.423580,175,1648185400,423024904,map,699.47822639,110.865704341,0.0,0.0,-0.0,-0.997559927349,-0.0698154091031
2022/03/25/14:16:40.523482,176,1648185400,522949424,map,698.877254523,110.954494573,0.0,0.0,-0.0,-0.997229775786,-0.0743826208543
2022/03/25/14:16:40.623492,177,1648185400,622937188,map,698.877254523,110.954494573,0.0,0.0,-0.0,-0.997229775786,-0.0743826208543
2022/03/25/14:16:40.723788,178,1648185400,723199214,map,698.311633942,111.065482365,0.0,0.0,-0.0,-0.992901735994,-0.118937557817
2022/03/25/14:16:40.823838,179,1648185400,823256668,map,698.311633942,111.065482365,0.0,0.0,-0.0,-0.992901735994,-0.118937557817
2022/03/25/14:16:40.923910,180,1648185400,923270571,map,698.311633942,111.065482365,0.0,0.0,-0.0,-0.992901735994,-0.118937557817
2022/03/25/14:16:41.023776,181,1648185401,23131474,map,697.728337718,111.165371376,0.0,0.0,-0.0,-0.998026317444,-0.0627970515976
2022/03/25/14:16:41.123729,182,1648185401,123081590,map,697.728337718,111.165371376,0.0,0.0,-0.0,-0.998026317444,-0.0627970515976
2022/03/25/14:16:41.223820,183,1648185401,223202184,map,697.145041495,111.254161609,0.0,0.0,-0.0,-0.999085245859,-0.0427629688639
2022/03/25/14:16:41.323567,184,1648185401,323014229,map,697.145041495,111.254161609,0.0,0.0,-0.0,-0.999085245859,-0.0427629688639
2022/03/25/14:16:41.423744,185,1648185401,423185543,map,697.145041495,111.254161609,0.0,0.0,-0.0,-0.999085245859,-0.0427629688639
2022/03/25/14:16:41.523790,186,1648185401,523244055,map,696.544069627,111.276359168,0.0,0.0,-0.0,-0.996417029305,-0.0845760232597
2022/03/25/14:16:41.623590,187,1648185401,623044860,map,696.544069627,111.276359168,0.0,0.0,-0.0,-0.996417029305,-0.0845760232597
2022/03/25/14:16:41.723576,188,1648185401,723044216,map,695.960773403,111.354050621,0.0,0.0,-0.0,-0.999138777608,-0.0414934100862
2022/03/25/14:16:41.823811,189,1648185401,823177716,map,695.960773403,111.354050621,0.0,0.0,-0.0,-0.999138777608,-0.0414934100862
2022/03/25/14:16:41.923676,190,1648185401,923058761,map,695.960773403,111.354050621,0.0,0.0,-0.0,-0.999138777608,-0.0414934100862
2022/03/25/14:16:42.023834,191,1648185402,23210258,map,695.386315001,111.431742074,0.0,0.0,-0.0,-0.997548978994,-0.0699716693253
2022/03/25/14:16:42.123776,192,1648185402,123057005,map,695.386315001,111.431742074,0.0,0.0,-0.0,-0.997548978994,-0.0699716693253
2022/03/25/14:16:42.223830,193,1648185402,223173894,map,694.803018777,111.498334749,0.0,0.0,-0.0,-0.998308014502,-0.0581472972769
2022/03/25/14:16:42.323636,194,1648185402,323024282,map,694.803018777,111.498334749,0.0,0.0,-0.0,-0.998308014502,-0.0581472972769
2022/03/25/14:16:42.423662,195,1648185402,423056437,map,694.803018777,111.498334749,0.0,0.0,-0.0,-0.998308014502,-0.0581472972769
2022/03/25/14:16:42.523539,196,1648185402,522942403,map,694.219722553,111.542729866,0.0,0.0,-0.0,-0.998169308754,-0.0604816588855
2022/03/25/14:16:42.623766,197,1648185402,623212750,map,694.219722553,111.542729866,0.0,0.0,-0.0,-0.998169308754,-0.0604816588855
2022/03/25/14:16:42.723861,198,1648185402,723230919,map,693.64526415,111.598223761,0.0,0.0,-0.0,-0.998199720138,-0.059977651804
2022/03/25/14:16:42.823958,199,1648185402,823238985,map,693.64526415,111.598223761,0.0,0.0,-0.0,-0.998199720138,-0.059977651804
2022/03/25/14:16:42.923891,200,1648185402,923232019,map,693.64526415,111.598223761,0.0,0.0,-0.0,-0.998199720138,-0.059977651804
2022/03/25/14:16:43.023878,201,1648185403,23232583,map,693.07964357,111.675915215,0.0,0.0,-0.0,-0.996756008388,-0.0804826673419
2022/03/25/14:16:43.123730,202,1648185403,123075700,map,693.07964357,111.675915215,0.0,0.0,-0.0,-0.996756008388,-0.0804826673419
2022/03/25/14:16:43.223686,203,1648185403,223131822,map,692.531698632,111.764705447,0.0,0.0,-0.0,-0.998581085858,-0.0532523705294
2022/03/25/14:16:43.323803,204,1648185403,323253643,map,692.531698632,111.764705447,0.0,0.0,-0.0,-0.998581085858,-0.0532523705294
2022/03/25/14:16:43.423807,205,1648185403,423227573,map,692.531698632,111.764705447,0.0,0.0,-0.0,-0.998581085858,-0.0532523705294
2022/03/25/14:16:43.523802,206,1648185403,523197061,map,691.95724023,111.842396901,0.0,0.0,-0.0,-0.997821692745,-0.0659687008158
2022/03/25/14:16:43.623805,207,1648185403,623238791,map,691.95724023,111.842396901,0.0,0.0,-0.0,-0.997821692745,-0.0659687008158
2022/03/25/14:16:43.723825,208,1648185403,723218760,map,691.40045747,111.920088355,0.0,0.0,-0.0,-0.996479249269,-0.0838397625045
2022/03/25/14:16:43.823660,209,1648185403,823058727,map,691.40045747,111.920088355,0.0,0.0,-0.0,-0.996479249269,-0.0838397625045
2022/03/25/14:16:43.923652,210,1648185403,923030294,map,691.40045747,111.920088355,0.0,0.0,-0.0,-0.996479249269,-0.0838397625045
2022/03/25/14:16:44.023637,211,1648185404,23035745,map,690.879025998,112.031076145,0.0,0.0,-0.0,-0.998540631827,-0.0540056162786
2022/03/25/14:16:44.123480,212,1648185404,122947753,map,690.879025998,112.031076145,0.0,0.0,-0.0,-0.998540631827,-0.0540056162786
2022/03/25/14:16:44.223741,213,1648185404,223165399,map,690.295729773,112.09766882,0.0,0.0,-0.0,-0.996267612507,-0.0863182730976
2022/03/25/14:16:44.323839,214,1648185404,323260628,map,690.295729773,112.09766882,0.0,0.0,-0.0,-0.996267612507,-0.0863182730976
2022/03/25/14:16:44.423814,215,1648185404,423236643,map,690.295729773,112.09766882,0.0,0.0,-0.0,-0.996267612507,-0.0863182730976
2022/03/25/14:16:44.523749,216,1648185404,523239577,map,689.71243355,112.164261494,0.0,0.0,-0.0,-0.997895997246,-0.0648350112307
2022/03/25/14:16:44.623753,217,1648185404,623238790,map,689.71243355,112.164261494,0.0,0.0,-0.0,-0.997895997246,-0.0648350112307
2022/03/25/14:16:44.723810,218,1648185404,723239883,map,689.173326433,112.286348065,0.0,0.0,-0.0,-0.981779129718,-0.190025631033
2022/03/25/14:16:44.823796,219,1648185404,823249277,map,689.173326433,112.286348065,0.0,0.0,-0.0,-0.981779129718,-0.190025631033
2022/03/25/14:16:44.923790,220,1648185404,923235577,map,689.173326433,112.286348065,0.0,0.0,-0.0,-0.981779129718,-0.190025631033
2022/03/25/14:16:45.023821,221,1648185405,23259068,map,688.581192388,112.364039518,0.0,0.0,-0.0,-0.996765462072,-0.0803655001855
2022/03/25/14:16:45.123893,222,1648185405,123261879,map,688.581192388,112.364039518,0.0,0.0,-0.0,-0.996765462072,-0.0803655001855
2022/03/25/14:16:45.223734,223,1648185405,223188137,map,688.006733986,112.452829751,0.0,0.0,-0.0,-0.99615291219,-0.0876320462755
2022/03/25/14:16:45.323781,224,1648185405,323227276,map,688.006733986,112.452829751,0.0,0.0,-0.0,-0.99615291219,-0.0876320462755
2022/03/25/14:16:45.423585,225,1648185405,423028430,map,688.006733986,112.452829751,0.0,0.0,-0.0,-0.99615291219,-0.0876320462755
2022/03/25/14:16:45.523578,226,1648185405,523029252,map,687.432275584,112.541619984,0.0,0.0,-0.0,-0.996821297055,-0.0796699550464
2022/03/25/14:16:45.623505,227,1648185405,622946725,map,687.432275584,112.541619984,0.0,0.0,-0.0,-0.996821297055,-0.0796699550464
2022/03/25/14:16:45.723716,228,1648185405,723241263,map,686.857817181,112.663706554,0.0,0.0,-0.0,-0.994392820055,-0.105749323511
2022/03/25/14:16:45.823800,229,1648185405,823240099,map,686.857817181,112.663706554,0.0,0.0,-0.0,-0.994392820055,-0.105749323511
2022/03/25/14:16:45.923860,230,1648185405,923253829,map,686.857817181,112.663706554,0.0,0.0,-0.0,-0.994392820055,-0.105749323511
2022/03/25/14:16:46.023926,231,1648185406,23267278,map,686.265683136,112.774694344,0.0,0.0,-0.0,-0.997313965901,-0.0732451596944
2022/03/25/14:16:46.123972,232,1648185406,123271845,map,686.265683136,112.774694344,0.0,0.0,-0.0,-0.997313965901,-0.0732451596944
2022/03/25/14:16:46.223991,233,1648185406,223291376,map,685.655873447,112.863484577,0.0,0.0,-0.0,-0.99659659209,-0.082433201049
2022/03/25/14:16:46.323996,234,1648185406,323301215,map,685.655873447,112.863484577,0.0,0.0,-0.0,-0.99659659209,-0.082433201049
2022/03/25/14:16:46.423629,235,1648185406,423186428,map,685.655873447,112.863484577,0.0,0.0,-0.0,-0.99659659209,-0.082433201049
2022/03/25/14:16:46.523904,236,1648185406,523287019,map,685.054901579,112.95227481,0.0,0.0,-0.0,-0.996643397691,-0.0818653641003
2022/03/25/14:16:46.623641,237,1648185406,623027312,map,685.054901579,112.95227481,0.0,0.0,-0.0,-0.996643397691,-0.0818653641003
2022/03/25/14:16:46.723850,238,1648185406,723258625,map,684.445091891,113.029966264,0.0,0.0,-0.0,-0.997649247024,-0.0685272202301
2022/03/25/14:16:46.823838,239,1648185406,823252049,map,684.445091891,113.029966264,0.0,0.0,-0.0,-0.997649247024,-0.0685272202301
2022/03/25/14:16:46.923800,240,1648185406,923207187,map,684.445091891,113.029966264,0.0,0.0,-0.0,-0.997649247024,-0.0685272202301
2022/03/25/14:16:47.023662,241,1648185407,23071717,map,683.844120024,113.140954055,0.0,0.0,-0.0,-0.995805270924,-0.0914978819467
2022/03/25/14:16:47.123569,242,1648185407,123026871,map,683.844120024,113.140954055,0.0,0.0,-0.0,-0.995805270924,-0.0914978819467
2022/03/25/14:16:47.223666,243,1648185407,223051068,map,683.234310335,113.240843066,0.0,0.0,-0.0,-0.997095305133,-0.0761639841561
2022/03/25/14:16:47.323570,244,1648185407,322970273,map,683.234310335,113.240843066,0.0,0.0,-0.0,-0.997095305133,-0.0761639841561
2022/03/25/14:16:47.423606,245,1648185407,423057308,map,683.234310335,113.240843066,0.0,0.0,-0.0,-0.997095305133,-0.0761639841561
2022/03/25/14:16:47.523752,246,1648185407,523302693,map,682.633338468,113.329633299,0.0,0.0,-0.0,-0.996445616462,-0.0842385507587
2022/03/25/14:16:47.623640,247,1648185407,623036880,map,682.633338468,113.329633299,0.0,0.0,-0.0,-0.996445616462,-0.0842385507587
2022/03/25/14:16:47.723867,248,1648185407,723262549,map,682.050042244,113.451719869,0.0,0.0,-0.0,-0.996453705534,-0.0841428115013
2022/03/25/14:16:47.823879,249,1648185407,823270559,map,682.050042244,113.451719869,0.0,0.0,-0.0,-0.996453705534,-0.0841428115013
2022/03/25/14:16:47.923805,250,1648185407,923210750,map,682.050042244,113.451719869,0.0,0.0,-0.0,-0.996453705534,-0.0841428115013
2022/03/25/14:16:48.023906,251,1648185408,23234438,map,681.422556912,113.551608881,0.0,0.0,-0.0,-0.997604182386,-0.0691801654113
2022/03/25/14:16:48.123943,252,1648185408,123257621,map,681.422556912,113.551608881,0.0,0.0,-0.0,-0.997604182386,-0.0691801654113
2022/03/25/14:16:48.223940,253,1648185408,223256898,map,680.79507158,113.629300335,0.0,0.0,-0.0,-0.996940528207,-0.0781638229481
2022/03/25/14:16:48.323960,254,1648185408,323253816,map,680.79507158,113.629300335,0.0,0.0,-0.0,-0.996940528207,-0.0781638229481
2022/03/25/14:16:48.423878,255,1648185408,423244760,map,680.79507158,113.629300335,0.0,0.0,-0.0,-0.996940528207,-0.0781638229481
2022/03/25/14:16:48.523806,256,1648185408,523188307,map,680.158748427,113.718090567,0.0,0.0,-0.0,-0.996851537867,-0.0792906769504
2022/03/25/14:16:48.623680,257,1648185408,623061874,map,680.158748427,113.718090567,0.0,0.0,-0.0,-0.996851537867,-0.0792906769504
2022/03/25/14:16:48.723734,258,1648185408,723197252,map,679.495911809,113.8068808,0.0,0.0,-0.0,-0.997181369971,-0.0750287637029
2022/03/25/14:16:48.823833,259,1648185408,823235865,map,679.495911809,113.8068808,0.0,0.0,-0.0,-0.997181369971,-0.0750287637029
2022/03/25/14:16:48.923824,260,1648185408,923215243,map,679.495911809,113.8068808,0.0,0.0,-0.0,-0.997181369971,-0.0750287637029
2022/03/25/14:16:49.023852,261,1648185409,23240204,map,678.841913013,113.895671033,0.0,0.0,-0.0,-0.99744576573,-0.071427896699
2022/03/25/14:16:49.123590,262,1648185409,123026602,map,678.841913013,113.895671033,0.0,0.0,-0.0,-0.99744576573,-0.071427896699
2022/03/25/14:16:49.223819,263,1648185409,223228719,map,678.196752037,113.995560044,0.0,0.0,-0.0,-0.997822164782,-0.0659615605518
2022/03/25/14:16:49.323841,264,1648185409,323214245,map,678.196752037,113.995560044,0.0,0.0,-0.0,-0.997822164782,-0.0659615605518
2022/03/25/14:16:49.423754,265,1648185409,423174609,map,678.196752037,113.995560044,0.0,0.0,-0.0,-0.997822164782,-0.0659615605518
2022/03/25/14:16:49.523742,266,1648185409,523158593,map,677.54275324,114.084350277,0.0,0.0,-0.0,-0.997559708012,-0.0698185430297
2022/03/25/14:16:49.623556,267,1648185409,623040884,map,677.54275324,114.084350277,0.0,0.0,-0.0,-0.997559708012,-0.0698185430297
2022/03/25/14:16:49.723720,268,1648185409,723173982,map,676.888754444,114.162041731,0.0,0.0,-0.0,-0.997810348539,-0.0661400661371
2022/03/25/14:16:49.823593,269,1648185409,823052146,map,676.888754444,114.162041731,0.0,0.0,-0.0,-0.997810348539,-0.0661400661371
2022/03/25/14:16:49.923787,270,1648185409,923222201,map,676.888754444,114.162041731,0.0,0.0,-0.0,-0.997810348539,-0.0661400661371
2022/03/25/14:16:50.023770,271,1648185410,23223713,map,676.234755647,114.250831963,0.0,0.0,-0.0,-0.998435415741,-0.055917086779
2022/03/25/14:16:50.123699,272,1648185410,123089087,map,676.234755647,114.250831963,0.0,0.0,-0.0,-0.998435415741,-0.055917086779
2022/03/25/14:16:50.223479,273,1648185410,223023400,map,675.571919029,114.328523417,0.0,0.0,-0.0,-0.997810336995,-0.0661402402879
2022/03/25/14:16:50.323486,274,1648185410,323026757,map,675.571919029,114.328523417,0.0,0.0,-0.0,-0.997810336995,-0.0661402402879
2022/03/25/14:16:50.423547,275,1648185410,423030361,map,675.571919029,114.328523417,0.0,0.0,-0.0,-0.997810336995,-0.0661402402879
2022/03/25/14:16:50.523406,276,1648185410,522942805,map,674.909082411,114.406214871,0.0,0.0,-0.0,-0.997562315042,-0.06978128408
2022/03/25/14:16:50.623662,277,1648185410,623097262,map,674.909082411,114.406214871,0.0,0.0,-0.0,-0.997562315042,-0.06978128408
2022/03/25/14:16:50.723829,278,1648185410,723272192,map,674.255083615,114.495005104,0.0,0.0,-0.0,-0.998098643185,-0.0616368272399
2022/03/25/14:16:50.823890,279,1648185410,823250726,map,674.255083615,114.495005104,0.0,0.0,-0.0,-0.998098643185,-0.0616368272399
2022/03/25/14:16:50.923815,280,1648185410,923160193,map,674.255083615,114.495005104,0.0,0.0,-0.0,-0.998098643185,-0.0616368272399
2022/03/25/14:16:51.023876,281,1648185411,23246685,map,673.592246997,114.561597778,0.0,0.0,-0.0,-0.997699288966,-0.0677947549364
2022/03/25/14:16:51.123906,282,1648185411,123251587,map,673.592246997,114.561597778,0.0,0.0,-0.0,-0.997699288966,-0.0677947549364
2022/03/25/14:16:51.223735,283,1648185411,223153798,map,672.964761665,114.66148679,0.0,0.0,-0.0,-0.997779901137,-0.066597814431
2022/03/25/14:16:51.323689,284,1648185411,323124282,map,672.964761665,114.66148679,0.0,0.0,-0.0,-0.997779901137,-0.066597814431
2022/03/25/14:16:51.423818,285,1648185411,423241437,map,672.964761665,114.66148679,0.0,0.0,-0.0,-0.997779901137,-0.066597814431
2022/03/25/14:16:51.523797,286,1648185411,523230476,map,672.354951976,114.750277023,0.0,0.0,-0.0,-0.996908673253,-0.0785690600261
2022/03/25/14:16:51.623591,287,1648185411,623040974,map,672.354951976,114.750277023,0.0,0.0,-0.0,-0.996908673253,-0.0785690600261
2022/03/25/14:16:51.723782,288,1648185411,723191376,map,671.753980109,114.827968477,0.0,0.0,-0.0,-0.998369723892,-0.0570779678642
2022/03/25/14:16:51.823833,289,1648185411,823222916,map,671.753980109,114.827968477,0.0,0.0,-0.0,-0.998369723892,-0.0570779678642
2022/03/25/14:16:51.924123,290,1648185411,923473045,map,671.753980109,114.827968477,0.0,0.0,-0.0,-0.998369723892,-0.0570779678642
2022/03/25/14:16:52.024084,291,1648185412,23470254,map,671.170683885,114.927857488,0.0,0.0,-0.0,-0.997069893244,-0.0764959344484
2022/03/25/14:16:52.123706,292,1648185412,123089683,map,671.170683885,114.927857488,0.0,0.0,-0.0,-0.997069893244,-0.0764959344484
2022/03/25/14:16:52.223727,293,1648185412,223209064,map,670.569712018,115.016647721,0.0,0.0,-0.0,-0.996510406545,-0.0834686147506
2022/03/25/14:16:52.323780,294,1648185412,323257079,map,670.569712018,115.016647721,0.0,0.0,-0.0,-0.996510406545,-0.0834686147506
2022/03/25/14:16:52.423521,295,1648185412,423213630,map,670.569712018,115.016647721,0.0,0.0,-0.0,-0.996510406545,-0.0834686147506
2022/03/25/14:16:52.523740,296,1648185412,523212759,map,669.951064507,115.105437954,0.0,0.0,-0.0,-0.997219770474,-0.0745166382432
2022/03/25/14:16:52.623843,297,1648185412,623255753,map,669.951064507,115.105437954,0.0,0.0,-0.0,-0.997219770474,-0.0745166382432
2022/03/25/14:16:52.723786,298,1648185412,723232514,map,669.341254819,115.216425745,0.0,0.0,-0.0,-0.995554027791,-0.0941922382632
2022/03/25/14:16:52.823808,299,1648185412,823248728,map,669.341254819,115.216425745,0.0,0.0,-0.0,-0.995554027791,-0.0941922382632
2022/03/25/14:16:52.923779,300,1648185412,923213545,map,669.341254819,115.216425745,0.0,0.0,-0.0,-0.995554027791,-0.0941922382632
2022/03/25/14:16:53.023782,301,1648185413,23241863,map,668.722607308,115.338512314,0.0,0.0,-0.0,-0.995972184996,-0.0896627387207
2022/03/25/14:16:53.123577,302,1648185413,123038740,map,668.722607308,115.338512314,0.0,0.0,-0.0,-0.995972184996,-0.0896627387207
2022/03/25/14:16:53.223701,303,1648185413,223191392,map,668.103959798,115.449500106,0.0,0.0,-0.0,-0.995830639836,-0.091221361339
2022/03/25/14:16:53.323753,304,1648185413,323235888,map,668.103959798,115.449500106,0.0,0.0,-0.0,-0.995830639836,-0.091221361339
2022/03/25/14:16:53.423882,305,1648185413,423247686,map,668.103959798,115.449500106,0.0,0.0,-0.0,-0.995830639836,-0.091221361339
2022/03/25/14:16:53.523468,306,1648185413,522936811,map,667.485312288,115.604883013,0.0,0.0,-0.0,-0.993742797025,-0.111692673715
2022/03/25/14:16:53.623473,307,1648185413,622933521,map,667.485312288,115.604883013,0.0,0.0,-0.0,-0.993742797025,-0.111692673715
2022/03/25/14:16:53.723553,308,1648185413,723035768,map,666.857826956,115.738068362,0.0,0.0,-0.0,-0.994944612704,-0.100425184347
2022/03/25/14:16:53.823834,309,1648185413,823252471,map,666.857826956,115.738068362,0.0,0.0,-0.0,-0.994944612704,-0.100425184347
2022/03/25/14:16:53.923800,310,1648185413,923252168,map,666.857826956,115.738068362,0.0,0.0,-0.0,-0.994944612704,-0.100425184347
2022/03/25/14:16:54.023901,311,1648185414,23265921,map,666.239179446,115.915648828,0.0,0.0,-0.0,-0.989746573896,-0.142834587763
2022/03/25/14:16:54.123903,312,1648185414,123251177,map,666.239179446,115.915648828,0.0,0.0,-0.0,-0.989746573896,-0.142834587763
2022/03/25/14:16:54.223882,313,1648185414,223249007,map,665.611694114,116.115426851,0.0,0.0,-0.0,-0.988774421194,-0.149416009824
2022/03/25/14:16:54.323676,314,1648185414,323062062,map,665.611694114,116.115426851,0.0,0.0,-0.0,-0.988774421194,-0.149416009824
2022/03/25/14:16:54.423602,315,1648185414,423049010,map,665.611694114,116.115426851,0.0,0.0,-0.0,-0.988774421194,-0.149416009824
2022/03/25/14:16:54.523600,316,1648185414,523055724,map,665.001884425,116.315204875,0.0,0.0,-0.0,-0.980427039777,-0.196882756164
2022/03/25/14:16:54.623586,317,1648185414,622958307,map,665.001884425,116.315204875,0.0,0.0,-0.0,-0.980427039777,-0.196882756164
2022/03/25/14:16:54.723539,318,1648185414,722998713,map,664.427426023,116.592674352,0.0,0.0,-0.0,-0.978149904926,-0.207900850151
2022/03/25/14:16:54.823583,319,1648185414,822988839,map,664.427426023,116.592674352,0.0,0.0,-0.0,-0.978149904926,-0.207900850151
2022/03/25/14:16:54.923905,320,1648185414,923308645,map,664.427426023,116.592674352,0.0,0.0,-0.0,-0.978149904926,-0.207900850151
2022/03/25/14:16:55.024008,321,1648185415,23285237,map,663.870643264,116.87014383,0.0,0.0,-0.0,-0.974342240658,-0.225071539891
2022/03/25/14:16:55.123784,322,1648185415,123075722,map,663.870643264,116.87014383,0.0,0.0,-0.0,-0.974342240658,-0.225071539891
2022/03/25/14:16:55.223958,323,1648185415,223252578,map,663.331536148,117.192008423,0.0,0.0,-0.0,-0.966788269812,-0.255578640252
2022/03/25/14:16:55.323725,324,1648185415,323171740,map,663.331536148,117.192008423,0.0,0.0,-0.0,-0.966788269812,-0.255578640252
2022/03/25/14:16:55.423782,325,1648185415,423245600,map,663.331536148,117.192008423,0.0,0.0,-0.0,-0.966788269812,-0.255578640252
2022/03/25/14:16:55.523815,326,1648185415,523344988,map,662.792429032,117.513873016,0.0,0.0,-0.0,-0.962582475327,-0.270988889427
2022/03/25/14:16:55.623515,327,1648185415,623046515,map,662.792429032,117.513873016,0.0,0.0,-0.0,-0.962582475327,-0.270988889427
2022/03/25/14:16:55.723672,328,1648185415,723233477,map,662.288673202,117.857935168,0.0,0.0,-0.0,-0.954893468911,-0.29694858651
2022/03/25/14:16:55.823625,329,1648185415,823115601,map,662.288673202,117.857935168,0.0,0.0,-0.0,-0.954893468911,-0.29694858651
2022/03/25/14:16:55.923774,330,1648185415,923238175,map,662.288673202,117.857935168,0.0,0.0,-0.0,-0.954893468911,-0.29694858651
2022/03/25/14:16:56.023761,331,1648185416,23250722,map,661.811430837,118.246392436,0.0,0.0,-0.0,-0.942704832175,-0.333627935572
2022/03/25/14:16:56.123786,332,1648185416,123248941,map,661.811430837,118.246392436,0.0,0.0,-0.0,-0.942704832175,-0.333627935572
2022/03/25/14:16:56.223731,333,1648185416,223216350,map,661.360701936,118.645948484,0.0,0.0,-0.0,-0.932514311701,-0.361133020469
2022/03/25/14:16:56.323750,334,1648185416,323238627,map,661.360701936,118.645948484,0.0,0.0,-0.0,-0.932514311701,-0.361133020469
2022/03/25/14:16:56.423719,335,1648185416,423204848,map,661.360701936,118.645948484,0.0,0.0,-0.0,-0.932514311701,-0.361133020469
2022/03/25/14:16:56.523742,336,1648185416,523251703,map,660.927648679,119.078800868,0.0,0.0,-0.0,-0.923393755341,-0.38385410327
2022/03/25/14:16:56.623675,337,1648185416,623013667,map,660.927648679,119.078800868,0.0,0.0,-0.0,-0.923393755341,-0.38385410327
2022/03/25/14:16:56.723706,338,1648185416,723054092,map,660.538784531,119.522752032,0.0,0.0,-0.0,-0.906189033269,-0.422872836657
2022/03/25/14:16:56.823880,339,1648185416,823235218,map,660.538784531,119.522752032,0.0,0.0,-0.0,-0.906189033269,-0.422872836657
2022/03/25/14:16:56.923910,340,1648185416,923227775,map,660.538784531,119.522752032,0.0,0.0,-0.0,-0.906189033269,-0.422872836657
2022/03/25/14:16:57.023899,341,1648185417,23240730,map,660.176433845,119.988900753,0.0,0.0,-0.0,-0.90701910142,-0.421089479397
2022/03/25/14:16:57.123921,342,1648185417,123252474,map,660.176433845,119.988900753,0.0,0.0,-0.0,-0.90701910142,-0.421089479397
2022/03/25/14:16:57.223881,343,1648185417,223254051,map,659.840596625,120.477247034,0.0,0.0,-0.0,-0.885063446034,-0.465470403457
2022/03/25/14:16:57.323666,344,1648185417,323117799,map,659.840596625,120.477247034,0.0,0.0,-0.0,-0.885063446034,-0.465470403457
2022/03/25/14:16:57.423757,345,1648185417,423243491,map,659.840596625,120.477247034,0.0,0.0,-0.0,-0.885063446034,-0.465470403457
2022/03/25/14:16:57.523691,346,1648185417,523213999,map,659.548948514,120.987790872,0.0,0.0,-0.0,-0.862702789412,-0.50571127844
2022/03/25/14:16:57.623444,347,1648185417,622930323,map,659.548948514,120.987790872,0.0,0.0,-0.0,-0.862702789412,-0.50571127844
2022/03/25/14:16:57.723504,348,1648185417,723042204,map,659.266138223,121.49833471,0.0,0.0,-0.0,-0.863614818196,-0.504152204985
2022/03/25/14:16:57.823492,349,1648185417,823030794,map,659.266138223,121.49833471,0.0,0.0,-0.0,-0.863614818196,-0.504152204985
2022/03/25/14:16:57.923606,350,1648185417,923072610,map,659.266138223,121.49833471,0.0,0.0,-0.0,-0.863614818196,-0.504152204985
2022/03/25/14:16:58.023519,351,1648185418,23053345,map,659.036354862,122.053273665,0.0,0.0,-0.0,-0.837107189886,-0.547038894998
2022/03/25/14:16:58.123440,352,1648185418,122927953,map,659.036354862,122.053273665,0.0,0.0,-0.0,-0.837107189886,-0.547038894998
2022/03/25/14:16:58.223655,353,1648185418,223210488,map,658.833084966,122.574916282,0.0,0.0,-0.0,-0.821352059358,-0.570421593725
2022/03/25/14:16:58.323737,354,1648185418,323243509,map,658.833084966,122.574916282,0.0,0.0,-0.0,-0.821352059358,-0.570421593725
2022/03/25/14:16:58.423954,355,1648185418,423429551,map,658.833084966,122.574916282,0.0,0.0,-0.0,-0.821352059358,-0.570421593725
2022/03/25/14:16:58.523731,356,1648185418,523249315,map,658.647490713,123.074361341,0.0,0.0,-0.0,-0.809096800287,-0.587675393194
2022/03/25/14:16:58.623788,357,1648185418,623250089,map,658.647490713,123.074361341,0.0,0.0,-0.0,-0.809096800287,-0.587675393194
2022/03/25/14:16:58.723705,358,1648185418,723232905,map,658.514923389,123.618201517,0.0,0.0,-0.0,-0.790080553713,-0.613003033144
2022/03/25/14:16:58.823409,359,1648185418,822969023,map,658.514923389,123.618201517,0.0,0.0,-0.0,-0.790080553713,-0.613003033144
2022/03/25/14:16:58.923804,360,1648185418,923242954,map,658.514923389,123.618201517,0.0,0.0,-0.0,-0.790080553713,-0.613003033144
2022/03/25/14:16:59.023774,361,1648185419,23240728,map,658.400031708,124.173140471,0.0,0.0,-0.0,-0.77393842038,-0.633260863673
2022/03/25/14:16:59.123648,362,1648185419,123071020,map,658.400031708,124.173140471,0.0,0.0,-0.0,-0.77393842038,-0.633260863673
2022/03/25/14:16:59.223818,363,1648185419,223248465,map,658.311653493,124.705881868,0.0,0.0,-0.0,-0.761796778731,-0.647816075684
2022/03/25/14:16:59.323743,364,1648185419,323193513,map,658.311653493,124.705881868,0.0,0.0,-0.0,-0.761796778731,-0.647816075684
2022/03/25/14:16:59.423784,365,1648185419,423258253,map,658.311653493,124.705881868,0.0,0.0,-0.0,-0.761796778731,-0.647816075684
2022/03/25/14:16:59.523785,366,1648185419,523215033,map,658.249788742,125.238623264,0.0,0.0,-0.0,-0.741358232279,-0.671109507779
2022/03/25/14:16:59.623764,367,1648185419,623210191,map,658.249788742,125.238623264,0.0,0.0,-0.0,-0.741358232279,-0.671109507779
2022/03/25/14:16:59.723607,368,1648185419,723046341,map,658.249788742,125.238623264,0.0,0.0,-0.0,-0.741358232279,-0.671109507779
2022/03/25/14:16:59.823594,369,1648185419,823046059,map,658.249788742,125.238623264,0.0,0.0,-0.0,-0.741358232279,-0.671109507779
2022/03/25/14:16:59.923514,370,1648185419,922993267,map,658.249788742,125.238623264,0.0,0.0,-0.0,-0.741358232279,-0.671109507779
2022/03/25/14:17:00.023643,371,1648185420,23182063,map,658.205599634,126.281908498,0.0,0.0,0.0,0.704893552996,0.709313103605
2022/03/25/14:17:00.123796,372,1648185420,123203442,map,658.205599634,126.281908498,0.0,0.0,0.0,0.704893552996,0.709313103605
2022/03/25/14:17:00.223810,373,1648185420,223184608,map,658.232113098,126.825748674,0.0,0.0,0.0,0.68967583858,0.724118248409
2022/03/25/14:17:00.323811,374,1648185420,323185087,map,658.232113098,126.825748674,0.0,0.0,0.0,0.68967583858,0.724118248409
2022/03/25/14:17:00.423747,375,1648185420,423108385,map,658.232113098,126.825748674,0.0,0.0,0.0,0.68967583858,0.724118248409
2022/03/25/14:17:00.523781,376,1648185420,523194417,map,658.267464385,127.369588849,0.0,0.0,0.0,0.683788643452,0.729680129294
2022/03/25/14:17:00.623668,377,1648185420,623031328,map,658.267464385,127.369588849,0.0,0.0,0.0,0.683788643452,0.729680129294
2022/03/25/14:17:00.723787,378,1648185420,723194232,map,658.311653493,127.913429025,0.0,0.0,0.0,0.677869108389,0.735182611255
2022/03/25/14:17:00.823673,379,1648185420,823080733,map,658.311653493,127.913429025,0.0,0.0,0.0,0.677869108389,0.735182611255
2022/03/25/14:17:00.923807,380,1648185420,923210293,map,658.311653493,127.913429025,0.0,0.0,0.0,0.677869108389,0.735182611255
2022/03/25/14:17:01.023877,381,1648185421,23216088,map,658.3558426,128.4572692,0.0,0.0,0.0,0.677869108389,0.735182611255
2022/03/25/14:17:01.123619,382,1648185421,123053513,map,658.3558426,128.4572692,0.0,0.0,0.0,0.677869108389,0.735182611255
2022/03/25/14:17:01.223641,383,1648185421,223033103,map,658.408869531,128.990010597,0.0,0.0,0.0,0.671175636808,0.741298364058
2022/03/25/14:17:01.323791,384,1648185421,323192542,map,658.408869531,128.990010597,0.0,0.0,0.0,0.671175636808,0.741298364058
2022/03/25/14:17:01.423809,385,1648185421,423209231,map,658.408869531,128.990010597,0.0,0.0,0.0,0.671175636808,0.741298364058
2022/03/25/14:17:01.523885,386,1648185421,523219457,map,658.444220816,129.544949551,0.0,0.0,0.0,0.684260859283,0.729237325192
2022/03/25/14:17:01.623620,387,1648185421,623038317,map,658.444220816,129.544949551,0.0,0.0,0.0,0.684260859283,0.729237325192
2022/03/25/14:17:01.723801,388,1648185421,723215360,map,658.567950318,130.144283622,0.0,0.0,0.0,0.631592637571,0.7753004193
2022/03/25/14:17:01.823807,389,1648185421,823216753,map,658.567950318,130.144283622,0.0,0.0,0.0,0.631592637571,0.7753004193
2022/03/25/14:17:01.923645,390,1648185421,923008200,map,658.567950318,130.144283622,0.0,0.0,0.0,0.631592637571,0.7753004193
2022/03/25/14:17:02.023827,391,1648185422,23155393,map,658.620977248,130.754716472,0.0,0.0,0.0,0.675817340684,0.737069143318
2022/03/25/14:17:02.123734,392,1648185422,123036810,map,658.620977248,130.754716472,0.0,0.0,0.0,0.675817340684,0.737069143318
2022/03/25/14:17:02.223697,393,1648185422,223029746,map,658.709355464,131.387346881,0.0,0.0,0.0,0.656370304208,0.754438880065
2022/03/25/14:17:02.323707,394,1648185422,323036560,map,658.709355464,131.387346881,0.0,0.0,0.0,0.656370304208,0.754438880065
2022/03/25/14:17:02.423684,395,1648185422,423021380,map,658.709355464,131.387346881,0.0,0.0,0.0,0.656370304208,0.754438880065
2022/03/25/14:17:02.523697,396,1648185422,523031912,map,658.771220215,132.019977288,0.0,0.0,0.0,0.671816390518,0.740717717779
2022/03/25/14:17:02.623590,397,1648185422,623004700,map,658.771220215,132.019977288,0.0,0.0,0.0,0.671816390518,0.740717717779
2022/03/25/14:17:02.723704,398,1648185422,723127374,map,658.850760609,132.641508918,0.0,0.0,0.0,0.660704337957,0.750646240119
2022/03/25/14:17:02.823783,399,1648185422,823217073,map,658.850760609,132.641508918,0.0,0.0,0.0,0.660704337957,0.750646240119
2022/03/25/14:17:02.923941,400,1648185422,923253071,map,658.850760609,132.641508918,0.0,0.0,0.0,0.660704337957,0.750646240119
2022/03/25/14:17:03.023843,401,1648185423,23252902,map,658.930301003,133.251941768,0.0,0.0,0.0,0.659844924248,0.751401807253
2022/03/25/14:17:03.123891,402,1648185423,123238624,map,658.930301003,133.251941768,0.0,0.0,0.0,0.659844924248,0.751401807253
2022/03/25/14:17:03.223813,403,1648185423,223230973,map,659.001003576,133.884572176,0.0,0.0,0.0,0.666682757678,0.745341599949
2022/03/25/14:17:03.323706,404,1648185423,323192655,map,659.001003576,133.884572176,0.0,0.0,0.0,0.666682757678,0.745341599949
2022/03/25/14:17:03.423580,405,1648185423,423018709,map,659.001003576,133.884572176,0.0,0.0,0.0,0.666682757678,0.745341599949
2022/03/25/14:17:03.523508,406,1648185423,522963922,map,659.080543971,134.506103805,0.0,0.0,0.0,0.660704337896,0.750646240172
2022/03/25/14:17:03.623583,407,1648185423,623035960,map,659.080543971,134.506103805,0.0,0.0,0.0,0.660704337896,0.750646240172
2022/03/25/14:17:03.723725,408,1648185423,723225293,map,659.151246543,135.105437876,0.0,0.0,0.0,0.664395905461,0.74738081378
2022/03/25/14:17:03.823725,409,1648185423,823187460,map,659.151246543,135.105437876,0.0,0.0,0.0,0.664395905461,0.74738081378
2022/03/25/14:17:03.923696,410,1648185423,923135925,map,659.151246543,135.105437876,0.0,0.0,0.0,0.664395905461,0.74738081378
2022/03/25/14:17:04.023576,411,1648185424,23024778,map,659.230786937,135.715870726,0.0,0.0,0.0,0.659844923488,0.751401807921
2022/03/25/14:17:04.123828,412,1648185424,123239886,map,659.230786937,135.715870726,0.0,0.0,0.0,0.659844923488,0.751401807921
2022/03/25/14:17:04.223757,413,1648185424,223232979,map,659.301489509,136.337402355,0.0,0.0,0.0,0.665948030223,0.745998137426
2022/03/25/14:17:04.323817,414,1648185424,323229289,map,659.301489509,136.337402355,0.0,0.0,0.0,0.665948030223,0.745998137426
2022/03/25/14:17:04.423795,415,1648185424,423197391,map,659.301489509,136.337402355,0.0,0.0,0.0,0.665948030223,0.745998137426
2022/03/25/14:17:04.523664,416,1648185424,523068097,map,659.372192082,136.970032763,0.0,0.0,0.0,0.666682758409,0.745341599295
2022/03/25/14:17:04.623837,417,1648185424,623223039,map,659.372192082,136.970032763,0.0,0.0,0.0,0.666682758409,0.745341599295
2022/03/25/14:17:04.723836,418,1648185424,723231177,map,659.442894655,137.602663171,0.0,0.0,0.0,0.666682757627,0.745341599995
2022/03/25/14:17:04.823827,419,1648185424,823232645,map,659.442894655,137.602663171,0.0,0.0,0.0,0.666682757627,0.745341599995
2022/03/25/14:17:04.923867,420,1648185424,923242301,map,659.442894655,137.602663171,0.0,0.0,0.0,0.666682757627,0.745341599995
2022/03/25/14:17:05.023851,421,1648185425,23245011,map,659.522435048,138.235293579,0.0,0.0,0.0,0.661533255012,0.749915830286
2022/03/25/14:17:05.123806,422,1648185425,123193854,map,659.522435048,138.235293579,0.0,0.0,0.0,0.661533255012,0.749915830286
2022/03/25/14:17:05.223780,423,1648185425,223180734,map,659.593137622,138.879022767,0.0,0.0,0.0,0.667391843147,0.744706739396
2022/03/25/14:17:05.323790,424,1648185425,323182781,map,659.593137622,138.879022767,0.0,0.0,0.0,0.667391843147,0.744706739396
2022/03/25/14:17:05.423840,425,1648185425,423222078,map,659.593137622,138.879022767,0.0,0.0,0.0,0.667391843147,0.744706739396
2022/03/25/14:17:05.523814,426,1648185425,523204153,map,659.672678016,139.544949513,0.0,0.0,0.0,0.663852340057,0.747863671133
2022/03/25/14:17:05.623852,427,1648185425,623239570,map,659.672678016,139.544949513,0.0,0.0,0.0,0.663852340057,0.747863671133
2022/03/25/14:17:05.723922,428,1648185425,723247003,map,659.752218409,140.199777479,0.0,0.0,0.0,0.663105827261,0.74852565878
2022/03/25/14:17:05.823942,429,1648185425,823261323,map,659.752218409,140.199777479,0.0,0.0,0.0,0.663105827261,0.74852565878
2022/03/25/14:17:05.923868,430,1648185425,923238794,map,659.752218409,140.199777479,0.0,0.0,0.0,0.663105827261,0.74852565878
2022/03/25/14:17:06.023888,431,1648185426,23214099,map,659.831758804,140.854605445,0.0,0.0,0.0,0.663105826554,0.748525659407
2022/03/25/14:17:06.123869,432,1648185426,123252945,map,659.831758804,140.854605445,0.0,0.0,0.0,0.663105826554,0.748525659407
2022/03/25/14:17:06.223919,433,1648185426,223257273,map,659.911299198,141.487235853,0.0,0.0,0.0,0.661533254279,0.749915830932
2022/03/25/14:17:06.323887,434,1648185426,323200003,map,659.911299198,141.487235853,0.0,0.0,0.0,0.661533254279,0.749915830932
2022/03/25/14:17:06.423857,435,1648185426,423236999,map,659.911299198,141.487235853,0.0,0.0,0.0,0.661533254279,0.749915830932
2022/03/25/14:17:06.523803,436,1648185426,523198767,map,659.98200177,142.108767483,0.0,0.0,0.0,0.665948030223,0.745998137426
2022/03/25/14:17:06.623729,437,1648185426,623121551,map,659.98200177,142.108767483,0.0,0.0,0.0,0.665948030223,0.745998137426
2022/03/25/14:17:06.723894,438,1648185426,723272319,map,660.052704344,142.730299111,0.0,0.0,0.0,0.665948029425,0.745998138137
2022/03/25/14:17:06.823829,439,1648185426,823203827,map,660.052704344,142.730299111,0.0,0.0,0.0,0.665948029425,0.745998138137
2022/03/25/14:17:06.923883,440,1648185426,923256360,map,660.052704344,142.730299111,0.0,0.0,0.0,0.665948029425,0.745998138137
2022/03/25/14:17:07.023855,441,1648185427,23252619,map,660.105731273,143.340731961,0.0,0.0,0.0,0.675817341436,0.737069142628
2022/03/25/14:17:07.123924,442,1648185427,123261339,map,660.105731273,143.340731961,0.0,0.0,0.0,0.675817341436,0.737069142628
2022/03/25/14:17:07.223736,443,1648185427,223181145,map,660.185271667,143.940066033,0.0,0.0,0.0,0.658953308318,0.752183845517
2022/03/25/14:17:07.323805,444,1648185427,323241524,map,660.185271667,143.940066033,0.0,0.0,0.0,0.658953308318,0.752183845517
2022/03/25/14:17:07.423829,445,1648185427,423252436,map,660.185271667,143.940066033,0.0,0.0,0.0,0.658953308318,0.752183845517
2022/03/25/14:17:07.523829,446,1648185427,523246914,map,660.264812062,144.539400104,0.0,0.0,0.0,0.658953308254,0.752183845574
2022/03/25/14:17:07.623550,447,1648185427,623026960,map,660.264812062,144.539400104,0.0,0.0,0.0,0.658953308254,0.752183845574
2022/03/25/14:17:07.723763,448,1648185427,723244780,map,660.335514634,145.116536616,0.0,0.0,0.0,0.662722883522,0.748864727208
2022/03/25/14:17:07.823746,449,1648185427,823235541,map,660.335514634,145.116536616,0.0,0.0,0.0,0.662722883522,0.748864727208
2022/03/25/14:17:07.923794,450,1648185427,923246985,map,660.335514634,145.116536616,0.0,0.0,0.0,0.662722883522,0.748864727208
2022/03/25/14:17:08.023772,451,1648185428,23243924,map,660.397379385,145.693673129,0.0,0.0,0.0,0.668362925073,0.7438353315
2022/03/25/14:17:08.123791,452,1648185428,123249334,map,660.397379385,145.693673129,0.0,0.0,0.0,0.668362925073,0.7438353315
2022/03/25/14:17:08.223287,453,1648185428,222996021,map,660.459244136,146.270809641,0.0,0.0,0.0,0.668362925019,0.743835331548
2022/03/25/14:17:08.323759,454,1648185428,323223704,map,660.459244136,146.270809641,0.0,0.0,0.0,0.668362925019,0.743835331548
2022/03/25/14:17:08.423781,455,1648185428,423241915,map,660.459244136,146.270809641,0.0,0.0,0.0,0.668362925019,0.743835331548
2022/03/25/14:17:08.523724,456,1648185428,523169034,map,660.512271065,146.836847375,0.0,0.0,0.0,0.673322910311,0.739348536517
2022/03/25/14:17:08.623807,457,1648185428,623243809,map,660.512271065,146.836847375,0.0,0.0,0.0,0.673322910311,0.739348536517
2022/03/25/14:17:08.723775,458,1648185428,723258656,map,660.574135816,147.413983888,0.0,0.0,0.0,0.668362925019,0.743835331548
2022/03/25/14:17:08.823752,459,1648185428,823226114,map,660.574135816,147.413983888,0.0,0.0,0.0,0.668362925019,0.743835331548
2022/03/25/14:17:08.923782,460,1648185428,923243346,map,660.574135816,147.413983888,0.0,0.0,0.0,0.668362925019,0.743835331548
2022/03/25/14:17:09.023756,461,1648185429,23234877,map,660.627162746,147.968922843,0.0,0.0,0.0,0.67263613685,0.739973396416
2022/03/25/14:17:09.123785,462,1648185429,123247330,map,660.627162746,147.968922843,0.0,0.0,0.0,0.67263613685,0.739973396416
2022/03/25/14:17:09.223776,463,1648185429,223249022,map,660.697865318,148.512763018,0.0,0.0,0.0,0.659954075648,0.751305941702
2022/03/25/14:17:09.323756,464,1648185429,323243669,map,660.697865318,148.512763018,0.0,0.0,0.0,0.659954075648,0.751305941702
2022/03/25/14:17:09.423778,465,1648185429,423236326,map,660.697865318,148.512763018,0.0,0.0,0.0,0.659954075648,0.751305941702
2022/03/25/14:17:09.523683,466,1648185429,523159052,map,660.750892248,149.067701973,0.0,0.0,0.0,0.67263613685,0.739973396416
2022/03/25/14:17:09.623513,467,1648185429,622998955,map,660.750892248,149.067701973,0.0,0.0,0.0,0.67263613685,0.739973396416
2022/03/25/14:17:09.723776,468,1648185429,723196470,map,660.750892248,149.067701973,0.0,0.0,0.0,0.67263613685,0.739973396416
2022/03/25/14:17:09.823721,469,1648185429,823198907,map,660.795081356,149.611542147,0.0,0.0,0.0,0.677869108346,0.735182611295
2022/03/25/14:17:09.923686,470,1648185429,923156494,map,660.795081356,149.611542147,0.0,0.0,0.0,0.677869108346,0.735182611295
2022/03/25/14:17:10.023555,471,1648185430,23048516,map,660.856946107,150.166481102,0.0,0.0,0.0,0.666785594349,0.745249603267
2022/03/25/14:17:10.123522,472,1648185430,122998560,map,660.856946107,150.166481102,0.0,0.0,0.0,0.666785594349,0.745249603267
2022/03/25/14:17:10.223742,473,1648185430,223265966,map,660.909973036,150.732518836,0.0,0.0,0.0,0.673322910311,0.739348536517
2022/03/25/14:17:10.323798,474,1648185430,323208004,map,660.909973036,150.732518836,0.0,0.0,0.0,0.673322910311,0.739348536517
2022/03/25/14:17:10.423548,475,1648185430,423007262,map,660.909973036,150.732518836,0.0,0.0,0.0,0.673322910311,0.739348536517
2022/03/25/14:17:10.523761,476,1648185430,523239288,map,660.962999966,151.298556569,0.0,0.0,0.0,0.67332290945,0.739348537301
2022/03/25/14:17:10.623536,477,1648185430,623032184,map,660.962999966,151.298556569,0.0,0.0,0.0,0.67332290945,0.739348537301
2022/03/25/14:17:10.723768,478,1648185430,723231953,map,661.024864716,151.853495524,0.0,0.0,0.0,0.666785595182,0.745249602521
2022/03/25/14:17:10.823603,479,1648185430,823052730,map,661.024864716,151.853495524,0.0,0.0,0.0,0.666785595182,0.745249602521
2022/03/25/14:17:10.923609,480,1648185430,922963947,map,661.024864716,151.853495524,0.0,0.0,0.0,0.666785595182,0.745249602521
2022/03/25/14:17:11.024088,481,1648185431,23536635,map,661.077891646,152.408434479,0.0,0.0,0.0,0.67263613685,0.739973396416
2022/03/25/14:17:11.123678,482,1648185431,123017169,map,661.077891646,152.408434479,0.0,0.0,0.0,0.67263613685,0.739973396416
2022/03/25/14:17:11.223885,483,1648185431,223219537,map,661.130918575,152.963373434,0.0,0.0,0.0,0.672636137679,0.739973395662
2022/03/25/14:17:11.323854,484,1648185431,323233691,map,661.130918575,152.963373434,0.0,0.0,0.0,0.672636137679,0.739973395662
2022/03/25/14:17:11.423795,485,1648185431,423190102,map,661.130918575,152.963373434,0.0,0.0,0.0,0.672636137679,0.739973395662
